Name,Latitude,Longitude
Parassala,8.315015,77.128723
Pambukala,8.325442,77.064161
Kovalam Jn,8.399849,76.980877
Neyyattinkara_2,8.407891,77.079493
Neyyattinkara_1,8.408044,77.079211
Thozhukkal,8.416719,77.080319
Balaramapuram_1,8.426358,77.038985
Balaramapuram_2,8.427159,77.039576
Pallichal Jn,8.443116,77.017322
Thiruvallom,8.443192,76.95248
Kumarichantha,8.451636,76.947008
Vellayani Jn,8.459034,76.997399
Vellayani Jn_2,8.459099,76.997492
Manacaud Jn,8.471944,76.948129
Eenjakkal_1,8.480571,76.935144
Eenjakkal_2,8.480782,76.935914
"Killipalam, near PRS hopspital",8.481339,76.959588
Killipalam,8.481502,76.958212
Power house road,8.484994,76.952989
East fort stretch,8.485964,76.947815
Thambanoor,8.487014,76.952138
Malayinkeezh,8.487506,77.036478
Kaithamukk,8.489563,76.940195
MG Road,8.490216,76.9473
Poojapura,8.491038,76.973892
All saints,8.494619,76.909807
All saints_2,8.494955,76.909431
Pettah,8.495205,76.927578
Vettukadu,8.496531,76.898736
Holy Angels Convent road,8.498015,76.942862
AKG center,8.500406,76.94619
Mangattukadav,8.50043,77.006246
"Vazhuthacaud, WC jn",8.500455,76.958291
"Palayam, near AKG center",8.500658,76.946283
Chakka bypass,8.502149,76.912763
Palayam,8.502111,76.950088
Kattakada_3,8.502327,77.071847
Edapazhanji Bridge,8.504579,76.970544
Kattakada_1,8.506018,77.079171
Kattakada_2,8.507411,77.086978
Kundamankadavu_2,8.508835,77.003379
Kundamankadavu_1,8.509155,77.004812
Veli,8.512363,76.890858
"KIMS Hopspital Jn, Venpalavattam",8.513192,76.910545
Venpalavattom near KIMS,8.51406,76.913645
"Venpalavattam, Poonthi road",8.514176,76.913673
Vilappilsala,8.521866,77.034677
Pattom,8.523048,76.94072
"Kottamukk,Aakkulam",8.523087,76.912266
"Pulimood Jn, Vattiyoorkav",8.523504,76.986278
Pattom(PVDS),8.526084,76.938934
Kallikkaad,8.529432,77.123205
Ulloor,8.529678,76.932632
Ambalamukk,8.529742,76.960949
Poovachal,8.534775,77.086764
Puliyarakonam,8.535401,77.016186
Bypass near UST Global,8.537797,76.879188
"Vazhayila, To Peroorkada",8.542643,76.971121
Nettayam,8.543787,76.987643
"Vazhayila, To Nedumangadu",8.545085,76.972706
Kottamughal_1,8.552103,76.942356
Kottamughal_2,8.552207,76.94261
"Mannanthala, Pothencode road",8.560715,76.943449
"Mannanthala, Peroorkada road",8.560721,76.943426
Paravankunnu Jn.,8.567804,76.873396
"Vettroad, towards Pothencode",8.582407,76.863898
"Vettroad, Pothencode road",8.584439,76.870474
Vattappara_1,8.59289,76.952505
Vattappara,8.59301,76.951436
"Nedumangad, Peroorkada road",8.600602,76.995921
"Nedumangadu, Kulavikkonam",8.601507,77.007632
"Nedumangadu, Ponmudi road",8.607802,77.005454
Nedumangadu,8.614673,76.997761
Nedumangadu Vembayam road,8.616172,76.989879
"MC road, Venjaramood",8.671249,76.911442
Thandrampoyka,8.68713,76.906738
"Mama Moonnumukku, Attingal",8.688358,76.823827
"Kizhakkenalumukk, Attingal",8.695186,76.817494
"Kacherinada, Attingal Jn",8.698136,76.813627
Alamcode Jn,8.72152,76.81289
Karet,8.727341,76.898314
Varkala Sivagiri roundabout,8.731977,76.731602
Varkala Sivagiri roundabout_2,8.732009,76.731613
"Varkala, railway station road",8.749478,76.714388
"Varkala road, Kallambalam",8.761897,76.787789
Kilimanoor,8.768114,76.885151
Navaikulam_2,8.79611,76.769131
Navaikulam_1,8.796135,76.769224
"Kallambalam, Kilimanoor road",8.79648,76.768878
"Parippally Jn, Chadayamangalam road",8.812245,76.759067
"Parippally Jn, towards Paravoor",8.812515,76.758594
"Madathara Jn, Thenmala road",8.817862,77.014643
"Nilamel Jn, Parippally road",8.823653,76.881142
"Hospital Jn, Kadakkal, Kulathupuzha road",8.826195,76.917526
"Ooranvila, Chathannoor, bus stand Jn",8.858628,76.723556
"Thirumukk Jn, Chathannoor",8.861774,76.706513
"Kottiyam Jn, towards Kollam",8.865903,76.671286
"Kottiyam Jn, Kannanalloor road",8.86602,76.670904
Chadayamangalam,8.873616,76.869508
"Oyoor Jn, Poyappally road",8.874771,76.773867
SN College Jn,8.881052,76.600385
"Kollam railway station, Karbala to Chinnakkada road",8.88564,76.596652
"Kannanalloor Jn, Kundara road",8.894907,76.681917
"Ayoor, Trivandrum road",8.895535,76.862002
"Mukhathala, Kollam road",8.897298,76.66667
Palakadavu,8.90246,76.620429
"Kulathooppuzha Jn, Madathara road",8.903809,77.05748
"Ramankulangara, Kollam road",8.904757,76.562213
"Pooyappally, Oyoor road",8.906553,76.762357
Mangad,8.914622,76.615873
"Karikkod, Kundara road",8.91684,76.632529
Kureepuzha,8.922099,76.582965
"Vadakke Jn, Nedumoncavu",8.924849,76.736132
"Anchal Jn, Kulathupuzha road",8.927468,76.913315
Sakthikulangara,8.929603,76.549566
Pavoor Vayal Jn,8.936768,76.613282
Vettuthara Jn,8.941801,76.539165
Odanavattom,8.945074,76.771832
"Mukkada, Kundara road",8.959225,76.676757
Thenmala Jn Chenkotta road,8.967805,77.070411
"Ezhukone, Kottarakkara road",8.980672,76.721303
"Karikkam, Kottarakkara road",8.992999,76.792001
"Titanium Jn, Sasthamkotta road",9.000891,76.535363
Randu road Jn,9.002033,76.662884
"Market Jn Kottarakkara, Puthoor road",9.006397,76.772101
"Punaloor, Kottarakkara road",9.017684,76.925528
Karalimukk Jn,9.02431,76.606057
"Kunnikode, Kottarakkara road",9.026247,76.850843
"Puthoor, Kottarakkara road",9.041638,76.715104
Mynagappally - Sasthamkotta road,9.042343,76.585005
Sasthamkotta,9.043288,76.625558
Karunagappally Jn,9.048493,76.536359
Bharanikavu Jn,9.059506,76.639134
Nediyavila Jn,9.061752,76.674696
Patharam. High School Jn. Karunagappally road,9.075186,76.605041
Puthiyakavu Jn,9.078156,76.531687
"Alappat Jn, Kulakkada",9.080372,76.752985
Thazhava Jn,9.087585,76.554357
Chakkuvally Jn,9.088659,76.638236
Pathanapuram,9.088882,76.856048
"Oachira Bypass Jn,",9.129304,76.515332
"Kadampanad Jn, Eanath road",9.091958,76.686522
"Enath, Adoor MC road",9.093063,76.753298
"Kalanjoor Jn, Elamannoor - Paadam road",9.120334,76.851057
"Nellimuttilpadi Jn, Sasthamkotta road",9.139659,76.733111
"Ezhamkulam Jn, Adoor road",9.144921,76.768146
Adoor Jn,9.152474,76.735644
"High school Jn, Adoor",9.161539,76.720839
"Anandapally Jn, Pathanamthitta road",9.176366,76.741549
Pandalam Medical mission Jn,9.216957,76.681108
"Konni, Pathanapuram road",9.221877,76.850946
"Pandalam, Kaippattoor road",9.223666,76.683185
"MC road, Kulanada",9.242484,76.672368
"Omallur, Puthenpeedika, Pathanamthitta road",9.254415,76.761954
Pathanamthitta Stadium Jn,9.261275,76.782068
Parumala Church Junction,9.326112,76.53661
"Aban Jn, Sabarimala road",9.26548,76.790159
"Elanthoor Jn, Kozhancheri road",9.30001,76.729861
"Chittar Jn, Thannithod road. Near bus stand",9.329613,76.925855
Kozhanchery. Thiruvalla road. Near bridge,9.337144,76.706238
"Vadasserikkara, Chittar road",9.337272,76.827216
"Kuttoor, Thiruvalla MCroad",9.357776,76.589015
"Valanjavattom, Kavumbhagam - Mavelikkara road -",9.358736,76.541549
Blockpady,9.361982,76.776962
"Perunad Market Jn,",9.367491,76.849412
"Podiyadi - Nedumbaram, Ambalapuzha (Edathua) - Thiruvalla road",9.367994,76.535368
"Perumbuzha, Ranni, Pathanamthitta road",9.379465,76.779661
"Cross Jn, Thiruvalla",9.380889,76.574686
Idinjillam(Kavumbhagam Road),9.408548,76.549922
"Angadimukk, Ranni. Kozhancheri road",9.382754,76.779325
"Eraviperur, Thiruvalla road",9.382893,76.638607
"Thadiyoor, Thiruvalla road",9.383039,76.706944
"Ittiyappara, Ranni",9.384908,76.783739
"Thottabhagam, Thiruvalla road",9.385841,76.610778
"Bypass road, Changanassery Road",9.388379,76.57821
"Vennikkulam, Thiruvalla road",9.390397,76.652977
Chilanga Jn,9.391944,76.577804
"Perunthuruthi, Thiruvalla - Changanassery road",9.406488,76.559752
"Chalappaly, Mallappally road",9.416455,76.728549
"Mandamaruthi Jn, Ponkunnam road",9.421429,76.79759
"Vechoochira, Mannadisala Navodaya school road",9.431754,76.851907
"Kunnanthanam Jn, Mallappally road",9.434784,76.612063
"Mallapally, Thiruvalla road",9.443949,76.651176
"Chungapara Jn, Mallappally road",9.451624,76.745523
"Nedungadappally, Changanassery road",9.462719,76.638081
Mukkada jn,9.151489,76.513843
Kayamkulam Govt Hospital Rd,9.171988,76.498481
Charumoodu,9.174855,76.612407
Pullukulangara,9.176054,76.473281
Kattanam,9.176485,76.562989
Kuttitheruvu jn,9.176729,76.525785
Muthukulam high school junction,9.213699,76.461492
mangam kuzhiyil,9.234828,76.589853
Thattarambalam,9.247363,76.52059
Choondupalaka junction muttom,9.251343,76.487977
Kollakadavu,9.252497,76.585642
Michel junction,9.253106,76.54039
Thrickunnappuzha,9.258257,76.415632
Ikya Junction,9.177174,76.4849
Madhava junction,9.283839,76.454506
Mulakuzha,9.301101,76.631504
Nangyarkulangara(Thrikkunnapuzha Road),9.259619,76.460688
"Marketjuncion,kacheri junction",9.313649,76.619142
Veeyapuram,9.318448,76.459496
Mannaar,9.325689,76.532288
Kallisseri,9.336356,76.603332
Edathua,9.36348,76.476278
Thottappalli,9.315957,76.387853
Ambalappuzha(Edathua Road),9.383509,76.357872
Valanjavazhi(SN Kavala),9.401926,76.357819
Kaichoondy,9.512952,76.338216
"Kaithavan, kalarcode",9.470422,76.344307
Valiyakulam junction,9.4819,76.331359
Zackariya bazar,9.491931,76.326308
Power house bridge,9.500572,76.328774
District court alappuzha,9.502623,76.341506
Valyachudukaad,9.475753,76.337596
Irumbu Paalam,9.496021,76.338934
Muhamma,9.604249,76.359166
Thannermukkom bund,9.677171,76.392674
Cherthala court junction,9.690197,76.343282
Kattoor,9.566642,76.308784
Shaktheeswaran Junction,9.695453,76.325799
thuravoor td junction,9.768159,76.318681
Thyckattushery ferry,9.775303,76.335696
Arookutti bridge,9.869443,76.321348
Laikadu bridge – 1,9.429685,76.544604
Laikadu Bridge – 2,9.42982,76.544536
Kattachira,9.676098,76.589123
Parelappally church,9.456794,76.552288
Kannanperoor bridge – 1,9.46987,76.529559
    Kannanperoor bridge – 2,9.470406,76.529431
Karukachal – 1,9.500775,76.635727
Karukachal – 2,9.504677,76.640656
Kanjirappally,9.560362,76.810644
"Near Police station, Ponkunnam, KK road",9.562173,76.772132
Ponkunnam Police station Pala road,9.564139,76.762276
"Kodimatha - 2, Manipuzha",9.566054,76.518615
Pala Road - Ponkunnam,9.568708,76.753304
Kodimatha – 1,9.572725,76.519613
Kottayam Kumaly road,9.588352,76.539343
KK road Kanjikuzhi,9.588589,76.536463
Kottayam Kumarakom road – 1,9.594619,76.520801
Kottayam Kumarakom road – 2,9.595179,76.517696
Nagampadom bridge – 1,9.598755,76.528686
Nagampadom bridge – 2,9.610497,76.533328
"St. Joseph church, Paika town – 2",9.653176,76.72408
Central junction – 2,9.664478,76.553777
"St. Joseph church, Paika town – 1",9.674032,76.699936
Central junction – 1,9.678426,76.557936
"Aaniyilapp, Eerattupetta",9.679143,76.788363
"Aruvithura church - 1, Erattupetta",9.685697,76.777048
"Aruvithura Church - 2, Earttupetta",9.686188,76.77715
"Near Mubarak Masjid, Nadaykkal",9.690241,76.7862
"Almanar HSS, Erattupetta",9.691043,76.782137
"Masjid noor juma masjid, Erattupetta 1",9.693217,76.770261
"Masjid Noor Juma Masjid, Erattupetta 2",9.694571,76.767193
Ponkunnam Bridge – 2,9.704482,76.684042
Head post office Pala – 2,9.705801,76.669549
Ponkunnam Bridge – 1,9.709654,76.682559
  Head post office Pala – 1,9.709763,76.67881
SRTO 1 Pala,9.711562,76.699388
SRTO 2 Pala,9.711812,76.69338
Near KSEB Pala - 1,9.717225,76.682724
RV junction Pala – 2,9.71725,76.689245
Near KSEB Pala – 2,9.720275,76.679525
RV Junction Pala – 1,9.731909,76.69261
Near Govt hospital Thalayolaparambu,9.782885,76.455084
Govt hospital junction,9.78597,76.454163
Near Thalappara junction,9.787778,76.458975
GH road,10.08829,77.060252
"Munnar,theatre bazar",10.07719,77.063012
Adimali 2,10.015773,76.953149
Adimali 1,10.014402,76.944909
Pooppara junction,9.976698,77.208778
Rajakumari,9.968621,77.15131
Rajakkad,9.962983,77.099424
Murickassery,9.913562,77.00971
Vengalloor,9.912343,76.69756
muthalakodam,9.910857,76.734234
Al azhar college,9.908105,76.72112
Vengalloor 2,9.90779,76.70811
Mangattu kavala,9.902388,76.726051
Boys high school junction,9.900422,76.721219
Kaarickode,9.900266,76.729582
Kolani parackadavu,9.899145,76.698396
Municipal park,9.89729,76.711799
Manakkad junction,9.896584,76.70566
Kanjiramattom junction,9.895991,76.718813
Karimban,9.892675,76.972181
Kolani,9.888143,76.696631
Thopramkudy,9.877691,77.056384
Mrala,9.857537,76.729575
Cheruthoni,9.843387,76.984704
Nedumkandam,9.839622,77.157403
Thankamani,9.83825,77.039494
Kattappana 2 erattayar road,9.760443,77.115092
Kattappana,9.755894,77.118938
Kanchiyar,9.745631,77.07694
Upputhura,9.697227,77.020653
Anackara,9.66284,77.159582
Wagamon,9.649876,76.926314
1st mile,9.618762,77.158186
Kuttikanam Elappara road Pallickunn,9.610816,76.968983
Kumily,9.606601,77.163427
Kuttikanam(Kuttikanam Mundakayam road),9.579295,76.970636
Vandiperiyar,9.571477,77.088822
Mundakkayam(Mundakayam Kuttikanam road),9.538994,76.901099
Aryankavu,9.848162,76.409561
Puthenkavu,9.857016,76.383643
Aroor  Thoppumpadi  road,9.887246,76.29822
Kumbalam Panangad bridge,9.910791,76.316509
Aroor,9.914416,76.583409
Nettoor,9.915166,76.3168
Udyamperoor,9.917132,76.362633
Near Alexander Parampithara bridge,9.929488,76.29045
Parippu jn,9.93549,76.252846
Thiruvankulam,9.945604,76.369772
Karigachira,9.952464,76.358681
Aavoli,9.954177,76.627873
Anicadu,9.962006,76.617624
Irumbanam,9.965175,76.357405
Valakom,9.978252,76.530217
Mudickal,9.978716,76.579324
Muvattupuzha pvt bus stand,9.979157,76.586806
Marine drive,9.980284,76.275579
Kaalamukku,9.985372,76.240722
Kadathi,9.986201,76.565982
Kakkadasseri,9.997385,76.598796
Vazhappally,9.997955,76.572081
Pattimattom,10.024084,76.454118
Njarackal,10.038527,76.219748
Mannoor,10.044988,76.53393
Keezhillam,10.049701,76.532729
Oonukal,10.0522,76.705646
Vimalagiri College junction,10.058985,76.615485
Kozhippalli,10.060205,76.635844
Arackapadi,10.064354,76.461797
Kothamangalam Govt hospital,10.066309,76.617274
Nangeli padi,10.069833,76.60162
Varappuzha bridge – 1,10.077112,76.27662
Varappuzha bridge – 2,10.079299,76.27416
Odackali,10.089359,76.564312
Thaqua nagar Thandekad,10.096947,76.450369
Koonammavu,10.101289,76.26535
Cherukunnam,10.101479,76.541796
Paathipalam,10.107731,76.475711
Perumbavoor signal MC road,10.111429,76.479071
AM road Perumbavoor – 2,10.114528,76.470115
Iringol,10.115581,76.50088
AM road Perumbavoor – 1,10.116158,76.484619
Muvattupuzha KSRTC junction,10.116601,76.445595
Kaduval jn,10.122996,76.473386
Cherayi padam,10.141113,76.203198
Perumpadanna North Paravoor,10.141113,76.203198
Mannam,10.146208,76.25462
Thamara valavu North Paravoor,10.149824,76.242192
Manjali bridge,10.1534,76.273075
Athani,10.155668,76.352835
"Nayathodu, Mattor  airport  road",10.163584,76.403794
Mattoor,10.170065,76.43075
Kalady Malayattoor road,10.170216,76.44492
Malliankara,10.17426,76.181373
TELK – 2,10.178056,76.378139
TELK - 1,10.178057,76.37815
Moothakunnam,10.182805,76.204886
Vengoor,10.183973,76.405955
Angamaly nh jn,10.192972,76.386875
Angadikadvu,10.196727,76.382656
Kidangoor,10.198417,76.396037
Karayamparambu – 1,10.205328,76.382574
Karayamparambu – 2,10.205568,76.382072
Valiyapanikan Thuruth,10.196812,76.200652
Methala (Actual Location Arakulam),10.212504,76.197451
Ubazar-Eriyad,10.228195,76.174506
North nada-Kodungalloor,10.228454,76.198316
Maala,10.240563,76.271499
Karupadanna(Konathkunn),10.275524,76.21022
Mathilmoola,10.28144,76.17076
Mathilakam,10.293174,76.160817
Thriprayar Temple Gate,10.414214,76.113296
Edathirinji-Irinjalakuda,10.34084,76.203203
RS road-Irinjalakuda(Don bosco view road),10.343678,76.22512
Irinjalakuda,10.347069,76.212382
SN Nagar-Irinjalakuda,10.357114,76.218667
Valappad,10.396695,76.11573
Thalikulam,10.439972,76.095139
Vadanappalli-Puthukulangara,10.46192,76.083932
Arimbur,10.497685,76.151752
Kuriyachira,10.498372,76.22837
Chettupuzha Bridge,10.498849,76.164243
Ancherichira,10.504741,76.246813
Nadathara 2,10.513337,76.258434
Nadathara NH,10.513865,76.258352
Nellikkunn,10.513911,76.243587
Civil line road 2,10.521848,76.19932
Chettuva M E S center junction,10.524329,76.04994
"Round West, Thrissur",10.524823,76.212008
Kalathode,10.526545,76.25357
Poonkunnam,10.533097,76.20195
Patturaikkal,10.536623,76.211875
Puzhakkal,10.543895,76.181951
"Peringavu, Viyyur",10.54828,76.212006
Vimala college,10.552178,76.226716
"Manathala, Chavakkad",10.588148,76.015799
"Thykkad, Guruvayur",10.598641,76.053001
Mulamkunnathukaavu(Killannur),10.59963,76.210612
Athani bypass(Thrissur-Ottapalam road),10.620117,76.217027
Choondal,10.630492,76.088322
Kunnamkulam,10.64637,76.065842
Chowannur,10.654699,76.080194
Vellarakkad,10.677382,76.120344
Porkulam,10.680856,76.070511
Pazhayannur(Vazhakkod-Alathur road),10.685709,76.41827
Aakkikavu - Perumbilavu,10.693286,76.091638
Chelakkara(Vazhakod-Alathur road),10.695636,76.331407
"Mulloorkara, Aattoor",10.708441,76.280292
Kadavaloor,10.718225,76.072579
Thiruvilwamala(Pazhayannoor-Lakkidi road),10.73031,76.42706
Cheruthuruthy,10.749079,76.274745
"Thalasseri, Aranattukara",10.750792,76.211587
Vadakkancheri,10.5899,76.480494
Ayinampadam,10.593957,76.591519
Valliyode,10.597425,76.499202
Mangalam Bridge,10.599983,76.489156
Vattekkad,10.610834,76.675236
Nedumani,10.611902,76.706053
Ayakkad,10.613576,76.473841
Keezhachira,10.632361,76.69398
"Pazhayannur  Road,  Alathur",10.648486,76.536347
Thathamangalam – Pallimukk,10.682646,76.700196
BEML(Menom para Rd),10.794028,76.781087
Paathikkal,10.732129,76.641843
Panayoor,10.71367,76.734008
Nalleppilly,10.727345,76.780697
Kinassery,10.73392,76.654452
Kadumthuruthy,10.739076,76.652642
Kozhinjampara,10.743509,76.830715
Vavanoor,10.75959,76.130539
Kottayi,10.760722,76.544099
Manapullikkavu,10.760977,76.665028
"Koottupatha, Marutha road",10.767577,76.694484
"Koduvayoor Rd, Kuzhalmantham",10.716079,76.603115
Chakkanthara,10.76968,76.639731
Ottappalam,10.772931,76.374819
"Thenariparamb, Koduvayur-Thrippallur Rd",10.646504,76.568361
Mepparambu,10.775628,76.628549
Pathirippala(PVDS),10.779511,76.474388
Pathirippala,10.780306,76.47642
Nellukuthamkulam,10.67708,76.466931
Chuvanna gate,10.78599,76.261032
"Guruvayur road, Pattambi",10.798468,76.180042
Mitranandapuram-Lakkidi,10.756351,76.436415
Murikkumpatta,10.801699,76.406684
Parali check Post,10.801812,76.552827
Mele Pattambi,10.809012,76.187302
Pirayiri,10.769897,76.617767
Vallapuzha,10.839657,76.251157
Kongad,10.860293,76.507927
Cherpalassery,10.881635,76.318491
Thiruvazhiyode,10.894719,76.388198
Koppam Jn- Palakkad 100ft Rd,10.781601,76.659033
Kanjirani(Kongad-Sreekrishnapuram Rd),10.899751,76.530788
Kallanchola(Ponnamkode-Karakurishi Rd),10.944476,76.514589
Thenkara(Mannarkkad-Aanakatti Rd),10.99853,76.470079
Nellipuzha(Mannarkad-Anakatti Rd),10.99674,76.46945
Alanalloor,11.007068,76.350809
Kottappalla,11.060539,76.348166
Kootumuchi,11.088412,75.868781
Naduvattom,10.769545,76.015071
Kariparamba,11.041908,75.898306
"Kavil padi ,Edappal",10.80531,76.00798
Parambilangadi,10.987125,75.994884
Perunthallur,10.842426,75.944992
Kadungathukund,10.939883,75.982135
Kuttikalathani,10.925323,75.997456
Kottapuram,10.881318,76.085749
Pulamanthole,10.899838,76.190306
"Thazhe palam, Tirur",10.916645,75.91821
"Onappuda, Kulathoor",10.941303,76.14957
Moonnakkal,10.897823,76.077103
"Amminikkad, School padi",10.967327,76.273988
Manathumangalam,10.995808,76.222475
"Nadakkavu, Tanur",10.97152,75.883061
Perinthalmanna,10.973937,76.23663
"Jubilee Jn, Angadippuram",10.975859,76.212108
padapparambu,10.988062,76.106763
Thadathil valavu,10.990823,76.17673
Edarikode,10.992081,75.979843
Kodakkal,10.851352,76.027689
Chattiparambu,10.999059,76.088912
Puthur bridge,11.005977,76.012534
Perunthallur-2,10.837815,75.946806
"Mankada, Verumpulakkal",11.027564,76.169781
Koottilangadi,11.033898,76.099808
Nooradi bridge,11.038975,76.06927
Parappanangadi,11.042392,75.861447
Kuttalur,11.052224,75.992244
"KK Jn, Biyyam",10.786412,75.951539
"Konompara, Melmuri",11.064044,76.07821
Marancheri,10.758934,75.966826
Kolathuparamba(Kottakkal-Malappuram road),11.015905,76.014906
"Kodakkallu, Kunnumpuram",11.079178,75.949772
Pandikkad(Payyapramba),11.103687,76.230095
Vazhaparapadi,11.108314,76.121638
"Thurakkal, Manjeri",11.119711,76.112968
Kadappadi valluvampuram,11.127366,76.047567
Changaramkulam,10.736071,76.028617
"Nelli parambu, Manjeri",11.130627,76.114212
Kodangad (Kozhikode-Malappuram road),11.140534,75.976373
"Alungal, pulikkal",11.168559,75.927707
"Muchikachola, Naduvath",11.209031,76.226304
"Cherumon,Edavanna",11.225082,76.146075
Arekode,11.239719,76.046638
Edavannapara,11.245484,75.973788
Thazhe chandhakunnu(Janathapadi padikkunn),11.28416,76.237332
Palunda,11.346055,76.285947
Nallalam,11.168484,75.830626
Beypore,11.170562,75.80605
Nallur,11.171417,75.83928
Mathottam,11.210226,75.797809
Kallayi,11.23285,75.789009
Vaidyarangadi(Palakkad road),11.178204,75.879253
Station link road,11.246707,75.782407
Calicut beach,11.252441,75.771055
Mananchira(PVDS),11.25318,75.779445
Pavamani road,11.255147,75.784902
Mananchira,11.256017,75.77898
Narikkuni,11.367075,75.862449
Anakuzhikara(Kuttikattur),11.266683,75.884263
Kavil(Omasseri-Koduvalli Rd),11.36848,75.929739
Ramanattukara West(Ferok road),11.179588,75.853828
Chevarambalam,11.276929,75.809082
Vellimadukunnu,11.292981,75.822599
Kunnamangalam,11.304161,75.872061
Pavangad,11.308084,75.758569
Mukkam(Kodiyathur),11.317581,75.996353
Kattangal,11.318927,75.940886
Poonoor (Actual Location name - Eranhikkal),11.334345,75.763649
"Madrasa Bazar, Koduvalli",11.344982,75.900277
Puladikkunn Jn(Eranhikkal-Puladikkunn road),11.333988,75.76279
Pantheernkaav(Mankav road),11.230238,75.84634
Puthoormadam(Perumanna pantheernakav road),11.236431,75.867988
Vattakkundungal,11.401998,75.927997
Karikkamkulam(Kakkdoi-Eranhipalam road),11.291377,75.789094
Nanmanda,11.419696,75.831149
Erakkulam(Vengeri-Balusseri road),11.321614,75.804377
Thazhe Omasseri,11.435962,75.902343
Balusseri,11.447831,75.825911
Vattoli bazar,11.447841,75.860113
Ulliyeri,11.449016,75.774445
Purakkatteri(Atholi-NH road),11.342558,75.760904
Engapuzha,11.468716,75.969365
Korappuzha(Kozhikode city-Vengalam Road),11.359801,75.742052
Naduvanoor,11.481387,75.77484
Payyoli Beach road,11.512781,75.612925
Kizhur,11.521792,75.633784
Meppayyur,11.529299,75.707981
Thiruvangoor(Atholi-Thiruvangoor Jn road),11.383603,75.7383
Kakkad,11.552718,75.763142
Pannimukku,11.564451,75.723237
Perambra,11.565378,75.755716
Sand Banks Road-Vadakara,11.590646,75.581227
Thiruvallur,11.590621,75.669959
2/6 Koothali,11.592258,75.76677
Vadakara Old bus stand,11.5965,75.589191
Peruvattam Thaazha(Vadakara town road),11.608133,75.580708
Villiappally,11.62397,75.626928
"Kuyimbil, Paleri",11.624616,75.756954
Cheriyakumbalam,11.645244,75.754873
Kuttiadi,11.651396,75.750197
Orkkaterry,11.654627,75.604525
Edacheri,11.663788,75.622582
"Paikkalangadi, Thottilpalam",11.671655,75.770003
Kappad(Thiruvangoor-Kappad beach road),11.380664,75.725784
Kakkattil,11.678591,75.70066
Meppayil(Meppayil-Vadakara town road),11.589991,75.604843
Nadapuram,11.686288,75.65571
Kallachi,11.688325,75.670523
"Chettuvetti, Nadapuram",11.689381,75.650983
Lakkidi,11.517829,76.021165
"Chithragiri, Vaduvanchal",11.554236,76.223831
Vaduvanchal,11.559874,76.224266
Meppadi,11.562278,76.125484
Kalpetta,11.607518,76.083423
Ambalavayal,11.623282,76.210988
Kainatti,11.634705,76.088538
Muttil,11.641189,76.107401
Sulthan Bathery,11.658445,76.247523
Meenangadi,11.660197,76.163571
Kaippanchery,11.663671,76.268158
"Kottakunnu, Sulthan Bathery",11.668365,76.269381
Kambalakkad,11.669998,76.079357
KSRTC Dipo,11.672694,76.258953
Padinjarathara 2,11.673646,75.971324
"Kambalakkad, Pallimukku",11.683783,76.076995
Padinjarathara,11.684064,75.974517
Kenichira,11.723769,76.150871
"Karimbummal, Panamaram",11.731643,76.073344
"Pazhanchana, Vellamunda",11.731847,75.951586
Tharuvana,11.738028,75.978072
Nadavayal,11.739191,76.120942
Panamaram,11.739283,76.072747
Panamaram bridge,11.741347,76.072054
"Payode, Manthavady",11.790993,76.00201
"Thalassery road, Manthavady",11.813142,75.994653
"Vayalkarara, Kattikulam",11.842197,76.057265
"Parimadam, new Mahe",11.709093,75.528502
New bus stand Thalassery - 1,11.749234,75.494732
New bus stand Thalassery - 2,11.749991,75.494541
Koduvalli gate NH( Kannur Kozhikode road),11.766475,75.478001
Koduvalli gate NH(Kozhikode Kannur road),11.767848,75.477984
Koothuparmba (Iritty Thalassery road),11.830353,75.566231
Thottada,11.85321,75.41445
Thayil,11.857665,75.390585
Mele chovva(Mattannur Kannur road),11.871585,75.396342
Mele chovva,11.871613,75.397026
Muneeswaram Kovil Road,11.873795,75.364865
chalad(kannur valapattanam road),11.880486,75.354924
Ancharakandi (airport Kannur town road),11.880558,75.50655
Thalap,11.885577,75.372403
Chakkarakkal (Kannur Mattannur road),11.889006,75.474955
Uravachal (Thalasseri Mattannur road),11.896022,75.584862
Chathurakinar (Mattannur Kannur town road),11.900203,75.417726
Puthiyatheru (Kannur Kasargod road),11.915927,75.36036
Mattannoor hospital jn(Thalasseri Iritty road),11.928776,75.572234
Chalode (Mattannur Kannur road),11.929508,75.504152
Mattannur (Mattannur airport road),11.931235,75.570094
"Mattool south,(pazhayangadi matool road)",11.954778,75.297654
Mangattuparamb,11.984387,75.365851
Keeriyad,11.926778,75.358927
Punnad(Iritty Kannur road),11.964026,75.655586
Kambil,11.966725,75.396698
Payancherimukku (Paiancheri junction Peravoor road),11.982867,75.676589
Payincheri ( Peravoor Payincheri junction),11.983085,75.676375
Iritty (Thalassery Iritty bridge),11.987797,75.676975
Iritty (Iritty bridge Thalassery road),11.987991,75.67669
Irikkur (Irrikkur Thaliparamb road),11.991266,75.548675
Mayyil,11.994117,75.449313
Puthiyangadi (Chootad beach Mattool road),12.020188,75.245251
"Pazhangadi - 2,(Payyannur Kannur road)",12.024498,75.266781
"Pazhayangadi,(Kannur Payyannur road )",12.024682,75.266694
Madayipara,12.030602,75.259755
Vallithode (Mysore Iritty road),12.034871,75.713596
Ulikkal (Ulikkal jn Iritty road),12.037799,75.665455
Ulikkal (Payyavoor Ulikkal jn),12.04054,75.660808
Manna (Thaliparamba Iritty road),12.040595,75.362169
"Chiravakku, Thaliparambu (Payyannur Kannur road)",12.04193,75.355717
Sreekandapuram (Thaliparamb Sreekandapuram road),12.044914,75.50673
Payyavoor (Sreekandapuram Payyavoor road),12.060018,75.578067
Payyavoor Town,12.06026,75.581613
"Keloth, Payyannur",12.100346,75.195932
Sumangali cinemas Payyannur,12.111484,75.210374
Vankulath Vayal,11.920861,75.334701
Kannur City Hospital,11.862681,75.36932
Alakode,12.18592,75.466135
Cherupuzha,12.2717,75.360799
Thrikkaripur,12.143232,75.177462
Thankayam mukk,12.143948,75.182362
Padanna,12.177715,75.146966
Kalikadavu,12.190224,75.169052
Cheruvathur,12.216424,75.161629
Cheemeni,12.235686,75.225463
Neeleshwaram,12.25556,75.130433
Panathur,12.457685,75.353556
Choyyomkode,12.287716,75.192083
Puthiyakotta,12.311791,75.093942
Kanjangad 1,12.321242,75.086752
Kanjangad 2,12.324315,75.085506
Athinhal,12.337662,75.078493
Kalanad Jn-1,12.451513,75.021879
Madiyan,12.348491,75.073583
Chithari,12.355391,75.06968
Pallikere,12.387097,75.044575
Bakel bridge,12.401177,75.03007
Odayamchal,12.40159,75.203891
Kalanad Jn-2,12.449719,75.022649
Palakkunnu,12.42277,75.022578
Kundamkuzhi,12.457079,75.140492
Meleparmba,12.469445,75.008568
Kuttikol,12.477041,75.211227
"Madiyan Jn, Madiyan-Kulom road",12.350334,75.074037
"Old bus stand Jn, MG Road",12.500905,74.989737
Press club Jn,12.504694,74.993765
Kottacheri ROB-Beach road,12.322836,75.081675
Bovikanam,12.507377,75.095186
Cherkkala Jn,12.508886,75.055083
Cherkkala,12.508924,75.055216
Hosdurg(Puthyakotta),12.31446,75.091357
"TB road, Kanhangad",12.31429,75.091028
Ballath(Chammattam vayal Jn),12.320304,75.109091
Kottapuram(Nileswaram Rd),12.249084,75.126109
Mulleria,12.548274,75.165202
Nadakkav-Udinar Rd,12.160854,75.171329
Seethangoli,12.587238,75.001678
Badiadka 2,12.588955,75.07359
Badiadka 1,12.591526,75.072752
Kumbla 2,12.592714,74.946532
Kumbla 1,12.592853,74.945797
Bandiyod,12.640146,74.929356
"Uppala-Bekur Road, Kaikumba",12.664898,74.921597
Perla,12.637022,75.102964
Hosangadi,12.705892,74.905156
Bandadka,12.498763,75.267684
